$GPGGA,084119.696,,,,,0,,,,,,,,*74
$GPVTG,0.0,T,,M,0.0,N,0.0,K,N*02
$GPRMC,084119.696,V,,,,,,,171219,,,N*4C
$GPGGA,084120.476,,,,,0,,,,,,,,*72
$GPVTG,0.0,T,,M,0.0,N,0.0,K,N*02
$GPGSV,3,1,09,02,13,313,32,03,46,078,39,06,50,303,43,09,64,203,39*71
$GPGSV,3,2,09,17,30,228,41,19,38,250,41,22,26,089,24,23,77,099,34*7D
$GPGSV,3,3,09,31,08,031,27*4D
$GLGSV,1,1,03,65,32,257,39,73,16,087,30,87,65,268,39*5B
$GPRMC,084120.476,V,,,,,,,171219,,,N*4A
$GPGGA,084121.476,,,,,0,,,,,,,,*73
$GPVTG,0.0,T,,M,0.0,N,0.0,K,N*02
$GPGSV,3,1,09,02,13,313,32,03,46,078,39,06,50,303,43,09,64,203,39*72
$GPGSV,3,2,09,17,30,228,41,19,38,250,41,22,26,089,24,23,77,098,34*7C
$GPGSV,3,3,09,31,08,031,27*4D
$GLGSV,1,1,04,65,32,258,39,72,71,310,33,73,16,087,30,87,65,268,39*62
$GPRMC,084121.476,V,,,,,,,171219,,,N*4B
$GPGGA,084122.477,4711.8791,N,00059.9368,W,1,15,0.6,75.8,M,48.2,M,,*7D
$GPVTG,0.0,T,,M,1.0,N,1.9,K,A*04
$GPGSV,3,1,11,01,13,140,30,02,13,313,33,03,46,078,40,06,50,303,44*76
$GPGSV,3,2,11,07,02,170,35,09,64,203,39,17,30,228,42,19,38,250,42*74
$GPGSV,3,3,11,22,26,089,24,23,77,098,34,31,08,031,27*40
$GLGSV,2,1,06,65,32,258,39,71,40,047,34,72,71,310,34,73,16,087,30*68
$GLGSV,2,2,06,86,29,180,36,87,65,268,39*60
$GPGSA,A,3,23,09,06,03,19,17,22,02,31,,,,1.2,0.6,1.0*35
$GNGSA,A,3,65,71,72,73,86,87,,,,,,,1.2,0.6,1.0*2D
$GPRMC,084122.477,A,4711.8791,N,00059.9368,W,1.0,0.0,171219,,,A*75
$GPGGA,084123.485,4711.8845,N,00059.9353,W,1,16,0.6,68.2,M,48.2,M,,*7A
$GPVTG,0.0,T,,M,0.5,N,0.9,K,A*01
$GPGSV,3,1,11,01,13,140,30,02,13,313,33,03,46,078,40,06,50,303,44*76
$GPGSV,3,2,11,07,02,170,33,09,64,203,39,17,30,228,42,19,38,250,42*72
$GPGSV,3,3,11,22,26,089,32,23,77,098,34,31,08,031,27*47
$GLGSV,2,1,06,65,32,258,39,71,40,047,34,72,71,310,34,73,16,087,30*68
$GLGSV,2,2,06,86,29,180,36,87,65,268,39*60
$GPGSA,A,3,23,09,06,03,19,17,22,02,01,31,,,1.2,0.6,0.8*3D
$GNGSA,A,3,65,71,72,73,86,87,,,,,,,1.2,0.6,0.8*24
$GPRMC,084123.485,A,4711.8845,N,00059.9353,W,0.5,0.0,171219,,,A*73
$GPGGA,084124.486,4711.8863,N,00059.9321,W,1,15,0.6,62.1,M,48.2,M,,*75
$GPVTG,0.0,T,,M,0.6,N,1.1,K,A*0B
$GPGSV,3,1,11,01,13,140,34,02,13,313,34,03,46,078,40,06,50,303,44*75
$GPGSV,3,2,11,07,02,170,32,09,64,203,39,17,30,228,42,19,38,250,42*73
$GPGSV,3,3,11,22,26,089,32,23,77,098,34,31,08,031,25*45
$GLGSV,2,1,07,65,32,258,39,71,40,047,35,72,71,310,34,73,16,087,30*68
$GLGSV,2,2,07,80,14,026,20,86,29,180,36,87,65,268,39*5A
$GPGSA,A,3,23,09,06,03,19,17,22,02,01,,,,1.2,0.6,1.0*36
$GNGSA,A,3,65,71,72,73,86,87,,,,,,,1.2,0.6,1.0*2D
$GPRMC,084124.486,A,4711.8863,N,00059.9321,W,0.6,0.0,171219,,,A*75
$GPGGA,084125.290,4711.8843,N,00059.9321,W,1,15,0.6,65.8,M,48.2,M,,*79
$GPVTG,0.0,T,,M,1.0,N,1.9,K,A*04
$GPGSV,3,1,11,01,13,140,39,02,13,313,34,03,46,078,39,06,50,303,44*76
$GPGSV,3,2,11,07,03,170,30,09,64,203,39,17,30,228,41,19,38,250,41*70
$GPGSV,3,3,11,22,26,089,32,23,77,098,34,31,08,031,25,36,27,139,30*7D
$GLGSV,2,1,07,65,32,258,39,71,40,047,35,72,71,310,34,73,16,087,31*69
$GLGSV,2,2,07,80,14,026,20,86,29,180,36,87,65,268,39*5A
$GPGSA,A,3,23,09,06,03,19,17,22,02,01,,,,1.2,0.6,1.0*36
$GNGSA,A,3,65,71,72,73,86,87,,,,,,,1.2,0.6,1.0*2D
$GPRMC,084125.290,A,4711.8843,N,00059.9321,W,1.0,0.0,171219,,,A*70
$GPGGA,084125.388,4711.8867,N,00059.9311,W,1,15,0.6,61.9,M,48.2,M,,*71
$GPVTG,103.3,T,,M,1.2,N,2.3,K,A*0E
$GPGSV,3,1,11,01,13,140,39,02,13,313,34,03,46,078,39,06,50,303,44*76
$GPGSV,3,2,11,07,03,170,29,09,64,203,39,17,30,228,41,19,38,250,41*78
$GPGSV,3,3,11,22,26,089,32,23,77,098,34,31,08,031,24,36,27,139,31*7D
$GLGSV,2,1,07,65,32,258,38,71,40,047,35,72,71,310,34,73,16,087,31*68
$GLGSV,2,2,07,80,14,026,20,86,29,180,35,87,65,268,39*59
$GPGSA,A,3,23,09,06,03,19,17,22,02,01,31,,,1.2,0.6,1.0*34
$GNGSA,A,3,71,72,73,86,87,,,,,,,,1.2,0.6,1.0*2E
$GPRMC,084125.388,A,4711.8867,N,00059.9311,W,1.2,103.3,171219,,,A*7E
$GPGGA,084126.000,4711.8859,N,00059.9305,W,1,15,0.6,58.5,M,48.2,M,,*7F
$GPVTG,103.7,T,,M,1.0,N,1.8,K,A*00
$GPGSV,3,1,11,01,13,140,39,02,13,313,34,03,46,078,40,06,50,303,43*7F
$GPGSV,3,2,11,07,03,170,27,09,64,203,39,17,30,228,40,19,38,250,40*76
$GPGSV,3,3,11,22,26,089,32,23,77,098,36,31,08,031,24,36,27,139,34*7A
$GLGSV,2,1,07,65,32,258,37,71,40,047,35,72,71,310,34,73,16,087,31*67
$GLGSV,2,2,07,80,14,026,19,86,29,180,35,87,65,268,39*53
$GPGSA,A,3,23,09,06,03,19,17,22,02,01,,,,1.2,0.6,1.0*36
$GNGSA,A,3,65,71,72,73,86,87,,,,,,,1.2,0.6,1.0*2D
$GPRMC,084126.000,A,4711.8859,N,00059.9305,W,1.0,103.7,171219,,,A*70
$GPGGA,084127.000,4711.8847,N,00059.9302,W,1,17,0.6,61.8,M,48.2,M,,*73
$GPVTG,103.8,T,,M,0.0,N,0.0,K,A*07
$GPGSV,3,1,11,01,13,140,39,02,13,313,34,03,46,078,42,06,50,303,42*7C
$GPGSV,3,2,11,07,03,170,26,09,64,203,38,17,30,228,39,19,38,250,39*76
$GPGSV,3,3,11,22,26,089,33,23,77,098,38,31,08,031,23,36,27,139,36*70
$GLGSV,2,1,07,65,32,258,36,71,40,047,36,72,71,310,34,73,16,087,31*65
$GLGSV,2,2,07,80,14,026,19,86,29,180,35,87,65,268,39*53
$GPGSA,A,3,23,09,06,03,19,17,22,02,01,31,,,1.0,0.6,0.8*3F
$GNGSA,A,3,65,71,72,73,80,86,87,,,,,,1.0,0.6,0.8*2E
$GPRMC,084127.000,A,4711.8847,N,00059.9302,W,0.0,103.8,171219,,,A*77
$GPGGA,084128.000,4711.8847,N,00059.9302,W,1,16,0.6,61.8,M,48.2,M,,*7D
$GPVTG,103.5,T,,M,0.0,N,0.0,K,A*0A
$GPGSV,3,1,11,01,13,140,39,02,13,313,34,03,46,078,43,06,50,303,41*7E
$GPGSV,3,2,11,07,03,170,24,09,64,203,38,17,30,228,39,19,38,250,38*75
$GPGSV,3,3,11,22,26,089,34,23,77,098,38,31,08,031,23,36,27,139,37*76
$GLGSV,2,1,07,65,32,258,35,71,40,047,36,72,71,310,34,73,16,087,31*66
$GLGSV,2,2,07,80,14,026,19,86,29,180,34,87,65,268,38*53
$GPGSA,A,3,23,09,06,03,19,17,22,02,01,,,,1.2,0.6,1.0*36
$GNGSA,A,3,65,71,72,73,80,86,87,,,,,,1.2,0.6,1.0*25
$GPRMC,084128.000,A,4711.8847,N,00059.9302,W,0.0,103.5,171219,,,A*75
$GPGGA,084129.000,4711.8847,N,00059.9302,W,1,16,0.6,61.8,M,48.2,M,,*7C
$GPVTG,103.4,T,,M,0.0,N,0.0,K,A*0B
$GPGSV,3,1,11,01,13,140,39,02,13,313,33,03,46,078,43,06,50,303,41*79
$GPGSV,3,2,11,07,03,170,23,09,64,203,37,17,30,228,38,19,38,250,37*73
$GPGSV,3,3,11,22,26,089,34,23,77,098,38,31,08,031,23,36,27,139,37*76
$GLGSV,2,1,07,65,32,258,34,71,40,047,40,72,71,310,34,73,16,087,31*66
$GLGSV,2,2,07,80,14,026,20,86,29,180,34,87,65,268,38*59
$GPGSA,A,3,23,09,06,03,19,17,22,02,01,,,,1.2,0.6,1.0*36
$GNGSA,A,3,65,71,72,73,80,86,87,,,,,,1.2,0.6,1.0*25
$GPRMC,084129.000,A,4711.8847,N,00059.9302,W,0.0,103.4,171219,,,A*75
$GPGGA,084130.000,4711.8847,N,00059.9302,W,1,16,0.6,61.8,M,48.2,M,,*74
$GPVTG,103.4,T,,M,0.0,N,0.0,K,A*0B
$GPGSV,3,1,11,01,13,140,39,02,13,313,33,03,46,078,43,06,50,303,40*78
$GPGSV,3,2,11,07,03,170,21,09,64,203,37,17,30,228,38,19,38,250,36*70
$GPGSV,3,3,11,22,26,089,34,23,77,098,38,31,08,031,23,36,27,139,37*76
$GLGSV,2,1,07,65,32,258,33,71,40,047,43,72,71,310,34,73,16,087,31*62
$GLGSV,2,2,07,80,14,026,20,86,29,180,34,87,65,268,37*56
$GPGSA,A,3,23,09,06,03,19,17,22,02,01,,,,1.2,0.6,1.0*36
$GNGSA,A,3,65,71,72,73,80,86,87,,,,,,1.2,0.6,1.0*25
$GPRMC,084130.000,A,4711.8847,N,00059.9302,W,0.0,103.4,171219,,,A*7D
$GPGGA,084131.000,4711.8846,N,00059.9299,W,1,15,0.6,61.4,M,48.2,M,,*78
$GPVTG,88.4,T,,M,0.9,N,1.7,K,A*36
$GPGSV,3,1,11,01,13,140,39,02,13,313,33,03,46,078,43,06,50,303,42*7A
$GPGSV,3,2,11,07,03,170,20,09,64,203,37,17,30,228,37,19,38,250,35*7D
$GPGSV,3,3,11,22,26,089,34,23,77,098,38,31,08,031,22,36,27,139,37*77
$GLGSV,2,1,07,65,32,258,33,71,40,047,43,72,71,310,34,73,16,087,31*62
$GLGSV,2,2,07,80,14,026,20,86,29,180,34,87,65,268,37*56
$GPGSA,A,3,23,09,06,03,19,17,22,02,01,,,,1.2,0.6,1.0*36
$GNGSA,A,3,65,71,72,73,86,87,,,,,,,1.2,0.6,1.0*2D
$GPRMC,084131.000,A,4711.8846,N,00059.9299,W,0.9,88.4,171219,,,A*45
$GPGGA,084132.000,4711.8842,N,00059.9303,W,1,17,0.6,61.3,M,48.2,M,,*78
$GPVTG,30.4,T,,M,1.1,N,2.1,K,A*39
$GPGSV,3,1,11,01,13,140,39,02,13,313,32,03,46,078,43,06,50,303,42*7B
$GPGSV,3,2,11,07,03,170,18,09,64,203,37,17,30,228,38,19,38,250,36*7A
$GPGSV,3,3,11,22,26,089,34,23,77,098,38,31,08,031,22,36,27,139,37*77
$GLGSV,2,1,07,65,32,258,35,71,40,047,42,72,71,310,34,73,16,087,31*65
$GLGSV,2,2,07,80,14,026,20,86,29,180,34,87,65,268,42*54
$GPGSA,A,3,23,09,06,03,19,17,22,02,01,31,,,1.0,0.6,0.8*3F
$GNGSA,A,3,65,71,72,73,80,86,87,,,,,,1.0,0.6,0.8*2E
$GPRMC,084132.000,A,4711.8842,N,00059.9303,W,1.1,30.4,171219,,,A*4A
$GPGGA,084133.000,4711.8837,N,00059.9311,W,1,15,0.6,60.4,M,48.2,M,,*7C
$GPVTG,283.6,T,,M,1.9,N,3.5,K,A*0C
$GPGSV,3,1,11,01,13,140,38,02,13,313,32,03,46,078,42,06,50,303,42*7B
$GPGSV,3,2,11,07,03,170,17,09,64,203,41,17,30,228,42,19,38,250,39*76
$GPGSV,3,3,11,22,26,089,33,23,77,098,38,31,08,031,22,36,27,139,36*71
$GLGSV,2,1,07,65,32,258,37,71,40,047,41,72,71,310,34,73,16,087,31*64
$GLGSV,2,2,07,80,14,026,20,86,29,180,35,87,65,268,42*55
$GPGSA,A,3,23,09,06,19,17,22,02,01,,,,,1.2,0.6,1.0*35
$GNGSA,A,3,65,71,72,73,80,86,87,,,,,,1.2,0.6,1.0*25
$GPRMC,084133.000,A,4711.8837,N,00059.9311,W,1.9,283.6,171219,,,A*7A
$GPGGA,084134.000,4711.8832,N,00059.9317,W,1,16,0.6,60.5,M,48.2,M,,*7A
$GPVTG,260.2,T,,M,1.6,N,2.9,K,A*07
$GPGSV,3,1,11,01,13,140,38,02,13,313,32,03,46,078,41,06,50,303,41*7B
$GPGSV,3,2,11,07,03,170,15,09,64,203,41,17,30,228,42,19,38,250,39*74
$GPGSV,3,3,11,22,26,089,32,23,77,098,37,31,08,031,22,36,27,139,35*7C
$GLGSV,2,1,07,65,32,258,38,71,40,047,40,72,71,310,33,73,16,087,30*6C
$GLGSV,2,2,07,80,14,026,19,86,29,180,40,87,65,268,41*5E
$GPGSA,A,3,23,09,06,03,19,17,22,02,01,,,,1.2,0.6,1.0*36
$GNGSA,A,3,65,71,72,73,80,86,87,,,,,,1.2,0.6,1.0*25
$GPRMC,084134.000,A,4711.8832,N,00059.9317,W,1.6,260.2,171219,,,A*78
$GPGGA,084135.000,4711.8829,N,00059.9323,W,1,16,0.6,61.1,M,48.2,M,,*73
$GPVTG,250.3,T,,M,1.6,N,3.0,K,A*0D
$GPGSV,3,1,11,01,13,140,38,02,13,313,31,03,46,078,39,06,50,303,41*77
$GPGSV,3,2,11,07,03,170,14,09,64,203,41,17,30,228,42,19,38,250,40*7B
$GPGSV,3,3,11,22,26,089,32,23,77,098,37,31,08,031,21,36,27,139,35*7F
$GLGSV,2,1,07,65,32,258,39,71,40,047,39,72,71,310,33,73,16,087,30*63
$GLGSV,2,2,07,80,14,026,19,86,29,180,40,87,65,268,41*5E
$GPGSA,A,3,23,09,06,03,19,17,22,02,01,31,,,1.2,0.6,0.8*3D
$GNGSA,A,3,65,71,72,73,86,87,,,,,,,1.2,0.6,0.8*24
$GPRMC,084135.000,A,4711.8829,N,00059.9323,W,1.6,250.3,171219,,,A*76
$GPGGA,084136.000,4711.8827,N,00059.9328,W,1,16,0.6,61.9,M,48.2,M,,*7D
$GPVTG,233.8,T,,M,1.1,N,2.1,K,A*04
$GPGSV,3,1,11,01,13,140,38,02,13,313,34,03,46,078,38,06,50,303,40*72
$GPGSV,3,2,11,07,03,170,12,09,64,203,41,17,30,228,43,19,38,250,41*7D
$GPGSV,3,3,11,22,26,089,31,23,77,098,36,31,08,031,21,36,27,139,35*7D
$GLGSV,2,1,07,65,32,258,39,71,40,047,38,72,71,310,33,73,16,087,29*6A
$GLGSV,2,2,07,80,14,026,19,86,29,180,41,87,65,268,41*5F
$GPGSA,A,3,23,09,06,03,19,17,22,02,01,,,,1.2,0.6,1.0*36
$GNGSA,A,3,65,71,72,73,80,86,87,,,,,,1.2,0.6,1.0*25
$GPRMC,084136.000,A,4711.8827,N,00059.9328,W,1.1,233.8,171219,,,A*79
